{"type":"FeatureCollection","name":"Health Facilities", "features": [
{"type":"Feature","geometry":{"type":"Point","coordinates":[125.594351,-8.5542693]},"properties":{"osm_id":1314024777,"operatorty":"","amenity":"hospital","healthcare":"","healthca_1":"","addrfull":"","capacitype":"","addrcity":"","name":"National Laboratory","source":"","building":""}},
{"type":"Feature","geometry":{"type":"Point","coordinates":[125.9157999,-9.0255949]},"properties":{"osm_id":1453634668,"operatorty":"","amenity":"hospital","healthcare":"","healthca_1":"","addrfull":"","capacitype":"","addrcity":"","name":"","source":"","building":""}},
{"type":"Feature","geometry":{"type":"Point","coordinates":[125.3410217,-8.6829941]},"properties":{"osm_id":1777614867,"operatorty":"","amenity":"hospital","healthcare":"","healthca_1":"","addrfull":"","capacitype":"","addrcity":"","name":"Acomano","source":"ICIST/GERTiL","building":""}},
{"type":"Feature","geometry":{"type":"Point","coordinates":[125.179679,-8.8708937]},"properties":{"osm_id":1777614871,"operatorty":"","amenity":"hospital","healthcare":"","healthca_1":"","addrfull":"","capacitype":"","addrcity":"","name":"Centro de Saúde Adabaisalala","source":"ICIST/GERTiL","building":""}},
{"type":"Feature","geometry":{"type":"Point","coordinates":[126.6006107,-8.5476975]},"properties":{"osm_id":1777614876,"operatorty":"","amenity":"hospital","healthcare":"","healthca_1":"","addrfull":"","capacitype":"","addrcity":"","name":"Centro de Saúde Afaca","source":"ICIST/GERTiL","building":""}},
{"type":"Feature","geometry":{"type":"Point","coordinates":[126.6699325,-8.6886052]},"properties":{"osm_id":1777614880,"operatorty":"","amenity":"hospital","healthcare":"","healthca_1":"","addrfull":"","capacitype":"","addrcity":"","name":"Centro de Saúde Afalocai","source":"ICIST/GERTiL","building":""}},
{"type":"Feature","geometry":{"type":"Point","coordinates":[126.5623068,-8.7771223]},"properties":{"osm_id":1777614881,"operatorty":"","amenity":"hospital","healthcare":"","healthca_1":"","addrfull":"","capacitype":"","addrcity":"","name":"Centro de Saúde Aflokai","source":"ICIST/GERTiL","building":""}},
{"type":"Feature","geometry":{"type":"Point","coordinates":[125.502883,-8.9995492]},"properties":{"osm_id":1777614883,"operatorty":"","amenity":"hospital","healthcare":"","healthca_1":"","addrfull":"","capacitype":"","addrcity":"","name":"Centro de Saúde Ainaro","source":"ICIST/GERTiL","building":""}},
{"type":"Feature","geometry":{"type":"Point","coordinates":[125.2056292,-8.7580191]},"properties":{"osm_id":1777614884,"operatorty":"","amenity":"hospital","healthcare":"","healthca_1":"","addrfull":"","capacitype":"","addrcity":"","name":"Asulao-Sare","source":"ICIST/GERTiL","building":""}},
{"type":"Feature","geometry":{"type":"Point","coordinates":[125.1015566,-8.7849798]},"properties":{"osm_id":1777614885,"operatorty":"","amenity":"hospital","healthcare":"","healthca_1":"","addrfull":"","capacitype":"","addrcity":"","name":"Atabai","source":"ICIST/GERTiL","building":""}},
{"type":"Feature","geometry":{"type":"Point","coordinates":[125.3972962,-8.9252133]},"properties":{"osm_id":1777614888,"operatorty":"","amenity":"hospital","healthcare":"","healthca_1":"","addrfull":"","capacitype":"","addrcity":"","name":"Centro de Saúde Atsabe","source":"ICIST/GERTiL","building":""}},
{"type":"Feature","geometry":{"type":"Point","coordinates":[126.8885794,-8.4568407]},"properties":{"osm_id":1777614892,"operatorty":"","amenity":"hospital","healthcare":"","healthca_1":"","addrfull":"","capacitype":"","addrcity":"","name":"Centro de Saúde Baduro","source":"ICIST/GERTiL","building":""}},
{"type":"Feature","geometry":{"type":"Point","coordinates":[126.6533272,-8.6284293]},"properties":{"osm_id":1777614896,"operatorty":"","amenity":"hospital","healthcare":"","healthca_1":"","addrfull":"","capacitype":"","addrcity":"","name":"Centro de Saúde Baguia","source":"ICIST/GERTiL","building":""}},
{"type":"Feature","geometry":{"type":"Point","coordinates":[125.0413282,-8.9691229]},"properties":{"osm_id":1777614899,"operatorty":"","amenity":"hospital","healthcare":"","healthca_1":"","addrfull":"","capacitype":"","addrcity":"","name":"Centro de Saúde Balibó","source":"ICIST/GERTiL","building":""}},
{"type":"Feature","geometry":{"type":"Point","coordinates":[126.0638382,-8.8481746]},"properties":{"osm_id":1777614903,"operatorty":"","amenity":"hospital","healthcare":"","healthca_1":"","addrfull":"","capacitype":"","addrcity":"","name":"Centro de Saúde Barique","source":"ICIST/GERTiL","building":""}},
{"type":"Feature","geometry":{"type":"Point","coordinates":[124.977111,-8.9520883]},"properties":{"osm_id":1777614907,"operatorty":"","amenity":"hospital","healthcare":"","healthca_1":"","addrfull":"","capacitype":"","addrcity":"","name":"Centro de Saúde Batugade","source":"ICIST/GERTiL","building":""}},
{"type":"Feature","geometry":{"type":"Point","coordinates":[125.0039442,-9.250075]},"properties":{"osm_id":1777614911,"operatorty":"","amenity":"hospital","healthcare":"","healthca_1":"","addrfull":"","capacitype":"","addrcity":"","name":"Centro de Saúde Belulik Lette","source":"ICIST/GERTiL","building":""}},
{"type":"Feature","geometry":{"type":"Point","coordinates":[125.6787847,-8.7212504]},"properties":{"osm_id":1777614913,"operatorty":"","amenity":"hospital","healthcare":"","healthca_1":"","addrfull":"","capacitype":"","addrcity":"","name":"Bereleu","source":"ICIST/GERTiL","building":""}},
{"type":"Feature","geometry":{"type":"Point","coordinates":[125.7294736,-9.1645128]},"properties":{"osm_id":1777614914,"operatorty":"","amenity":"hospital","healthcare":"hospital","healthca_1":"","addrfull":"","capacitype":"","addrcity":"","name":"Centtro de Saúde Betano","source":"ICIST/GERTiL","building":""}},
{"type":"Feature","geometry":{"type":"Point","coordinates":[125.2473701,-8.7916044]},"properties":{"osm_id":1777614915,"operatorty":"","amenity":"hospital","healthcare":"","healthca_1":"","addrfull":"","capacitype":"","addrcity":"","name":"Centro de Saúde Bilimao","source":"ICIST/GERTiL","building":""}},
{"type":"Feature","geometry":{"type":"Point","coordinates":[125.3252274,-9.0310369]},"properties":{"osm_id":1777614916,"operatorty":"","amenity":"hospital","healthcare":"","healthca_1":"","addrfull":"","capacitype":"","addrcity":"","name":"Centro de Saúde Bobonaro","source":"ICIST/GERTiL","building":""}},
{"type":"Feature","geometry":{"type":"Point","coordinates":[126.2810126,-8.9119971]},"properties":{"osm_id":1777614917,"operatorty":"","amenity":"hospital","healthcare":"","healthca_1":"","addrfull":"","capacitype":"","addrcity":"","name":"Centro de Saúde Buikarim","source":"ICIST/GERTiL","building":""}},
{"type":"Feature","geometry":{"type":"Point","coordinates":[125.5444349,-9.134252]},"properties":{"osm_id":1777614922,"operatorty":"","amenity":"hospital","healthcare":"","healthca_1":"","addrfull":"","capacitype":"","addrcity":"","name":"Cassa","source":"ICIST/GERTiL","building":""}},
{"type":"Feature","geometry":{"type":"Point","coordinates":[125.9957252,-9.0280457]},"properties":{"osm_id":1777614932,"operatorty":"","amenity":"hospital","healthcare":"hospital","healthca_1":"","addrfull":"","capacitype":"","addrcity":"","name":"Centro de Saúde Clacuc","source":"ICIST/GERTiL","building":""}},
{"type":"Feature","geometry":{"type":"Point","coordinates":[125.3750044,-8.831003]},"properties":{"osm_id":1777614933,"operatorty":"","amenity":"hospital","healthcare":"","healthca_1":"","addrfull":"","capacitype":"","addrcity":"","name":"Centro de Saúde Coliate Leot","source":"ICIST/GERTiL","building":""}},
{"type":"Feature","geometry":{"type":"Point","coordinates":[125.9911368,-8.6757737]},"properties":{"osm_id":1777614935,"operatorty":"","amenity":"hospital","healthcare":"","healthca_1":"","addrfull":"","capacitype":"","addrcity":"","name":"Centro de Saúde Cribas","source":"ICIST/GERTiL","building":""}},
{"type":"Feature","geometry":{"type":"Point","coordinates":[125.6874907,-9.0815648]},"properties":{"osm_id":1777614940,"operatorty":"","amenity":"hospital","healthcare":"hospital","healthca_1":"","addrfull":"","capacitype":"","addrcity":"","name":"Daisua","source":"ICIST/GERTiL","building":""}},
{"type":"Feature","geometry":{"type":"Point","coordinates":[125.3579108,-8.6574213]},"properties":{"osm_id":1777614944,"operatorty":"","amenity":"hospital","healthcare":"","healthca_1":"","addrfull":"","capacitype":"","addrcity":"","name":"Darulete","source":"ICIST/GERTiL","building":""}},
{"type":"Feature","geometry":{"type":"Point","coordinates":[126.2087985,-8.838813]},"properties":{"osm_id":1777614945,"operatorty":"","amenity":"hospital","healthcare":"","healthca_1":"","addrfull":"","capacitype":"","addrcity":"","name":"Centro de Saúde Dilor","source":"ICIST/GERTiL","building":""}},
{"type":"Feature","geometry":{"type":"Point","coordinates":[125.475838,-8.8563686]},"properties":{"osm_id":1777614946,"operatorty":"","amenity":"hospital","healthcare":"","healthca_1":"","addrfull":"","capacitype":"","addrcity":"","name":"Centro de Saúde Ducurai","source":"ICIST/GERTiL","building":""}},
{"type":"Feature","geometry":{"type":"Point","coordinates":[125.3989649,-8.7500092]},"properties":{"osm_id":1777614947,"operatorty":"","amenity":"hospital","healthcare":"","healthca_1":"","addrfull":"","capacitype":"","addrcity":"","name":"Centro de Saúde Ermera","source":"ICIST/GERTiL","building":""}},
{"type":"Feature","geometry":{"type":"Point","coordinates":[125.4271164,-8.8008188]},"properties":{"osm_id":1777614952,"operatorty":"","amenity":"hospital","healthcare":"","healthca_1":"","addrfull":"","capacitype":"","addrcity":"","name":"Centro de Saúde Estado","source":"ICIST/GERTiL","building":""}},
{"type":"Feature","geometry":{"type":"Point","coordinates":[125.5263186,-8.6351541]},"properties":{"osm_id":1777614955,"operatorty":"","amenity":"hospital","healthcare":"","healthca_1":"","addrfull":"","capacitype":"","addrcity":"","name":"Centro de Saúde Fatisi","source":"ICIST/GERTiL","building":""}},
{"type":"Feature","geometry":{"type":"Point","coordinates":[125.3552035,-8.7588973]},"properties":{"osm_id":1777614959,"operatorty":"","amenity":"hospital","healthcare":"","healthca_1":"","addrfull":"","capacitype":"","addrcity":"","name":"Centro de saúde Fatobolu","source":"ICIST/GERTiL","building":""}},
{"type":"Feature","geometry":{"type":"Point","coordinates":[125.3240529,-8.7503142]},"properties":{"osm_id":1777614962,"operatorty":"","amenity":"hospital","healthcare":"","healthca_1":"","addrfull":"","capacitype":"","addrcity":"","name":"Fatubessi","source":"ICIST/GERTiL","building":""}},
{"type":"Feature","geometry":{"type":"Point","coordinates":[125.38273,-8.6252466]},"properties":{"osm_id":1777614966,"operatorty":"","amenity":"hospital","healthcare":"","healthca_1":"","addrfull":"","capacitype":"","addrcity":"","name":"Centro de saúde Fatumasi","source":"ICIST/GERTiL","building":""}},
{"type":"Feature","geometry":{"type":"Point","coordinates":[125.7305899,-8.6629645]},"properties":{"osm_id":1777614969,"operatorty":"","amenity":"hospital","healthcare":"","healthca_1":"","addrfull":"","capacitype":"","addrcity":"","name":"Faturasa","source":"ICIST/GERTiL","building":""}},
{"type":"Feature","geometry":{"type":"Point","coordinates":[125.0883034,-9.283084]},"properties":{"osm_id":1777614973,"operatorty":"","amenity":"hospital","healthcare":"","healthca_1":"","addrfull":"","capacitype":"","addrcity":"","name":"Centro de Saúde Fohoren","source":"ICIST/GERTiL","building":""}},
{"type":"Feature","geometry":{"type":"Point","coordinates":[125.8705244,-8.7503575]},"properties":{"osm_id":1777614974,"operatorty":"","amenity":"hospital","healthcare":"","healthca_1":"","addrfull":"","capacitype":"","addrcity":"","name":"Funar","source":"ICIST/GERTiL","building":""}},
{"type":"Feature","geometry":{"type":"Point","coordinates":[125.3658472,-9.153192]},"properties":{"osm_id":1777614976,"operatorty":"","amenity":"hospital","healthcare":"","healthca_1":"","addrfull":"","capacitype":"","addrcity":"","name":"Centro de Saúde Gala","source":"ICIST/GERTiL","building":""}},
{"type":"Feature","geometry":{"type":"Point","coordinates":[125.2888185,-8.892764]},"properties":{"osm_id":1777614977,"operatorty":"","amenity":"hospital","healthcare":"","healthca_1":"","addrfull":"","capacitype":"","addrcity":"","name":"Centro de Saúde Genulai","source":"ICIST/GERTiL","building":""}},
{"type":"Feature","geometry":{"type":"Point","coordinates":[125.2126293,-9.1200488]},"properties":{"osm_id":1777614978,"operatorty":"","amenity":"hospital","healthcare":"","healthca_1":"","addrfull":"","capacitype":"","addrcity":"","name":"Gildapil","source":"ICIST/GERTiL","building":""}},
{"type":"Feature","geometry":{"type":"Point","coordinates":[125.4367821,-8.7253939]},"properties":{"osm_id":1777614979,"operatorty":"","amenity":"hospital","healthcare":"","healthca_1":"","addrfull":"","capacitype":"","addrcity":"","name":"Centro de Saúde Gleno","source":"ICIST/GERTiL","building":""}},
{"type":"Feature","geometry":{"type":"Point","coordinates":[125.1532091,-8.7284274]},"properties":{"osm_id":1777614980,"operatorty":"","amenity":"hospital","healthcare":"","healthca_1":"","addrfull":"","capacitype":"","addrcity":"","name":"Centro de Saúde Guico","source":"ICIST/GERTiL","building":""}},
{"type":"Feature","geometry":{"type":"Point","coordinates":[125.3186928,-8.8116976]},"properties":{"osm_id":1777614982,"operatorty":"","amenity":"hospital","healthcare":"","healthca_1":"","addrfull":"","capacitype":"","addrcity":"","name":"Centro de Saúde Hatólia","source":"ICIST/GERTiL","building":""}},
{"type":"Feature","geometry":{"type":"Point","coordinates":[125.5194523,-8.8940001]},"properties":{"osm_id":1777614990,"operatorty":"","amenity":"hospital","healthcare":"","healthca_1":"","addrfull":"","capacitype":"","addrcity":"","name":"Centro de Saúde Hatu Builico","source":"ICIST/GERTiL","building":""}},
{"type":"Feature","geometry":{"type":"Point","coordinates":[125.3212015,-8.6413773]},"properties":{"osm_id":1777614999,"operatorty":"","amenity":"hospital","healthcare":"","healthca_1":"","addrfull":"","capacitype":"","addrcity":"","name":"Hatukesi","source":"ICIST/GERTiL","building":""}},
{"type":"Feature","geometry":{"type":"Point","coordinates":[125.3703948,-9.0038061]},"properties":{"osm_id":1777615003,"operatorty":"","amenity":"hospital","healthcare":"","healthca_1":"","addrfull":"","capacitype":"","addrcity":"","name":"Centro de Saúde Hauba","source":"ICIST/GERTiL","building":""}},
{"type":"Feature","geometry":{"type":"Point","coordinates":[125.7631696,-8.6070917]},"properties":{"osm_id":1777615008,"operatorty":"","amenity":"hospital","healthcare":"","healthca_1":"","addrfull":"","capacitype":"","addrcity":"","name":"Hohoroi","source":"ICIST/GERTiL","building":""}},
{"type":"Feature","geometry":{"type":"Point","coordinates":[125.6304324,-8.9364203]},"properties":{"osm_id":1777615009,"operatorty":"","amenity":"hospital","healthcare":"hospital","healthca_1":"","addrfull":"","capacitype":"","addrcity":"","name":"Holarua","source":"ICIST/GERTiL","building":""}},
{"type":"Feature","geometry":{"type":"Point","coordinates":[126.2693022,-8.9642454]},"properties":{"osm_id":1777615011,"operatorty":"","amenity":"hospital","healthcare":"","healthca_1":"","addrfull":"","capacitype":"","addrcity":"","name":"Centro de Saúde Klaralek","source":"ICIST/GERTiL","building":""}},
{"type":"Feature","geometry":{"type":"Point","coordinates":[126.5968384,-8.4741982]},"properties":{"osm_id":1777615024,"operatorty":"","amenity":"hospital","healthcare":"","healthca_1":"","addrfull":"","capacitype":"","addrcity":"","name":"Centro de Saúde Laga","source":"ICIST/GERTiL","building":""}},
{"type":"Feature","geometry":{"type":"Point","coordinates":[125.920663,-8.554307]},"properties":{"osm_id":1777615028,"operatorty":"","amenity":"hospital","healthcare":"hospital","healthca_1":"","addrfull":"","capacitype":"","addrcity":"","name":"Lakumesac","source":"ICIST/GERTiL","building":""}},
{"type":"Feature","geometry":{"type":"Point","coordinates":[126.1649337,-8.5382134]},"properties":{"osm_id":1777615032,"operatorty":"","amenity":"hospital","healthcare":"","healthca_1":"","addrfull":"","capacitype":"","addrcity":"","name":"Centro de Saúde Laleia","source":"ICIST/GERTiL","building":""}},
{"type":"Feature","geometry":{"type":"Point","coordinates":[126.7269875,-8.6564297]},"properties":{"osm_id":1777615035,"operatorty":"","amenity":"hospital","healthcare":"","healthca_1":"","addrfull":"","capacitype":"","addrcity":"","name":"Centro de Saúde Larasolai","source":"ICIST/GERTiL","building":""}},
{"type":"Feature","geometry":{"type":"Point","coordinates":[126.6843925,-8.5679782]},"properties":{"osm_id":1777615036,"operatorty":"","amenity":"hospital","healthcare":"","healthca_1":"","addrfull":"","capacitype":"","addrcity":"","name":"Centro de Saúde Lavateri","source":"ICIST/GERTiL","building":""}},
{"type":"Feature","geometry":{"type":"Point","coordinates":[125.3186162,-8.8648329]},"properties":{"osm_id":1777615037,"operatorty":"","amenity":"hospital","healthcare":"","healthca_1":"","addrfull":"","capacitype":"","addrcity":"","name":"Lemeia Craic","source":"ICIST/GERTiL","building":""}},
{"type":"Feature","geometry":{"type":"Point","coordinates":[125.3719678,-8.678781]},"properties":{"osm_id":1777615038,"operatorty":"","amenity":"hospital","healthcare":"","healthca_1":"","addrfull":"","capacitype":"","addrcity":"","name":"Leorema","source":"ICIST/GERTiL","building":""}},
{"type":"Feature","geometry":{"type":"Point","coordinates":[126.2794067,-8.7394657]},"properties":{"osm_id":1777615041,"operatorty":"","amenity":"hospital","healthcare":"","healthca_1":"","addrfull":"","capacitype":"","addrcity":"","name":"Centro de Saúde Lia Ruka","source":"ICIST/GERTiL","building":""}},
{"type":"Feature","geometry":{"type":"Point","coordinates":[125.7439049,-8.8296508]},"properties":{"osm_id":1777615043,"operatorty":"","amenity":"hospital","healthcare":"","healthca_1":"","addrfull":"","capacitype":"","addrcity":"","name":"Liurai","source":"ICIST/GERTiL","building":""}},
{"type":"Feature","geometry":{"type":"Point","coordinates":[126.435083,-8.5277397]},"properties":{"osm_id":1777615046,"operatorty":"","amenity":"hospital","healthcare":"","healthca_1":"","addrfull":"","capacitype":"","addrcity":"","name":"Centro de Saúde Lore","source":"ICIST/GERTiL","building":""}},
{"type":"Feature","geometry":{"type":"Point","coordinates":[125.7908712,-9.0201112]},"properties":{"osm_id":1777615065,"operatorty":"","amenity":"hospital","healthcare":"","healthca_1":"","addrfull":"","capacitype":"","addrcity":"","name":"Mahaquidan","source":"ICIST/GERTiL","building":""}},
{"type":"Feature","geometry":{"type":"Point","coordinates":[125.2180001,-8.9888843]},"properties":{"osm_id":1777615066,"operatorty":"","amenity":"hospital","healthcare":"","healthca_1":"","addrfull":"","capacitype":"","addrcity":"","name":"Centro de Saúde Maliana","source":"ICIST/GERTiL","building":""}},
{"type":"Feature","geometry":{"type":"Point","coordinates":[126.0238484,-8.5125663]},"properties":{"osm_id":1777615067,"operatorty":"","amenity":"hospital","healthcare":"hospital","healthca_1":"","addrfull":"","capacitype":"","addrcity":"","name":"Centro de Saúde Manatuto","source":"ICIST/GERTiL","building":""}},
{"type":"Feature","geometry":{"type":"Point","coordinates":[125.961478,-8.9358294]},"properties":{"osm_id":1777615069,"operatorty":"","amenity":"hospital","healthcare":"","healthca_1":"","addrfull":"","capacitype":"","addrcity":"","name":"Manehat","source":"ICIST/GERTiL","building":""}},
{"type":"Feature","geometry":{"type":"Point","coordinates":[125.9236297,-8.8015343]},"properties":{"osm_id":1777615071,"operatorty":"","amenity":"hospital","healthcare":"","healthca_1":"","addrfull":"","capacitype":"","addrcity":"","name":"Manelima","source":"ICIST/GERTiL","building":""}},
{"type":"Feature","geometry":{"type":"Point","coordinates":[125.9104695,-8.5553234]},"properties":{"osm_id":1777615072,"operatorty":"","amenity":"hospital","healthcare":"","healthca_1":"","addrfull":"","capacitype":"","addrcity":"","name":"Mantane","source":"ICIST/GERTiL","building":""}},
{"type":"Feature","geometry":{"type":"Point","coordinates":[125.2096207,-8.8822511]},"properties":{"osm_id":1777615073,"operatorty":"","amenity":"hospital","healthcare":"","healthca_1":"","addrfull":"","capacitype":"","addrcity":"","name":"Centro de Saúde Marco","source":"ICIST/GERTiL","building":""}},
{"type":"Feature","geometry":{"type":"Point","coordinates":[125.2055969,-8.6123832]},"properties":{"osm_id":1777615074,"operatorty":"","amenity":"hospital","healthcare":"","healthca_1":"","addrfull":"","capacitype":"","addrcity":"","name":"Centro de Saúde Maubara","source":"ICIST/GERTiL","building":""}},
{"type":"Feature","geometry":{"type":"Point","coordinates":[125.2094463,-8.6567137]},"properties":{"osm_id":1777615080,"operatorty":"","amenity":"hospital","healthcare":"","healthca_1":"","addrfull":"","capacitype":"","addrcity":"","name":"Centro de Saúde Maubara-Lisa","source":"ICIST/GERTiL","building":""}},
{"type":"Feature","geometry":{"type":"Point","coordinates":[125.6659375,-8.8007114]},"properties":{"osm_id":1777615083,"operatorty":"","amenity":"hospital","healthcare":"","healthca_1":"","addrfull":"","capacitype":"","addrcity":"","name":"Centro de Saúde Maulau","source":"ICIST/GERTiL","building":""}},
{"type":"Feature","geometry":{"type":"Point","coordinates":[125.6567962,-8.6707768]},"properties":{"osm_id":1777615084,"operatorty":"","amenity":"hospital","healthcare":"","healthca_1":"","addrfull":"","capacitype":"","addrcity":"","name":"Maumeta","source":"ICIST/GERTiL","building":""}},
{"type":"Feature","geometry":{"type":"Point","coordinates":[125.5155242,-8.7484932]},"properties":{"osm_id":1777615085,"operatorty":"","amenity":"hospital","healthcare":"","healthca_1":"","addrfull":"","capacitype":"","addrcity":"","name":"Centro de Saúde Maurussa","source":"ICIST/GERTiL","building":""}},
{"type":"Feature","geometry":{"type":"Point","coordinates":[126.9340398,-8.3588091]},"properties":{"osm_id":1777615092,"operatorty":"","amenity":"hospital","healthcare":"","healthca_1":"","addrfull":"","capacitype":"","addrcity":"","name":"Centro de Saúde Moro","source":"ICIST/GERTiL","building":""}},
{"type":"Feature","geometry":{"type":"Point","coordinates":[125.3234177,-8.9902234]},"properties":{"osm_id":1777615096,"operatorty":"","amenity":"hospital","healthcare":"","healthca_1":"","addrfull":"","capacitype":"","addrcity":"","name":"Morobo","source":"ICIST/GERTiL","building":""}},
{"type":"Feature","geometry":{"type":"Point","coordinates":[125.4031442,-8.5964158]},"properties":{"osm_id":1777615103,"operatorty":"","amenity":"hospital","healthcare":"","healthca_1":"","addrfull":"","capacitype":"","addrcity":"","name":"Motaulun","source":"ICIST/GERTiL","building":""}},
{"type":"Feature","geometry":{"type":"Point","coordinates":[125.6480319,-8.7145085]},"properties":{"osm_id":1777615104,"operatorty":"","amenity":"hospital","healthcare":"","healthca_1":"","addrfull":"","capacitype":"","addrcity":"","name":"Nameleso","source":"ICIST/GERTiL","building":""}},
{"type":"Feature","geometry":{"type":"Point","coordinates":[125.2138867,-9.2254293]},"properties":{"osm_id":1777615105,"operatorty":"","amenity":"hospital","healthcare":"","healthca_1":"","addrfull":"","capacitype":"","addrcity":"","name":"Olpilat","source":"ICIST/GERTiL","building":""}},
{"type":"Feature","geometry":{"type":"Point","coordinates":[125.2668758,-9.1659284]},"properties":{"osm_id":1777615106,"operatorty":"","amenity":"hospital","healthcare":"","healthca_1":"","addrfull":"","capacitype":"","addrcity":"","name":"Centro de saúde Opa","source":"ICIST/GERTiL","building":""}},
{"type":"Feature","geometry":{"type":"Point","coordinates":[125.9090235,-8.7487625]},"properties":{"osm_id":1777615110,"operatorty":"","amenity":"hospital","healthcare":"","healthca_1":"","addrfull":"","capacitype":"","addrcity":"","name":"Orlalan","source":"ICIST/GERTiL","building":""}},
{"type":"Feature","geometry":{"type":"Point","coordinates":[126.4427017,-8.7535649]},"properties":{"osm_id":1777615114,"operatorty":"","amenity":"hospital","healthcare":"","healthca_1":"","addrfull":"","capacitype":"","addrcity":"","name":"Centro de Saúde Ossu Rua","source":"ICIST/GERTiL","building":""}},
{"type":"Feature","geometry":{"type":"Point","coordinates":[126.3832863,-8.7410439]},"properties":{"osm_id":1777615117,"operatorty":"","amenity":"hospital","healthcare":"","healthca_1":"","addrfull":"","capacitype":"","addrcity":"","name":"Centro de Saúde Ossu","source":"ICIST/GERTiL","building":""}},
{"type":"Feature","geometry":{"type":"Point","coordinates":[126.5590402,-8.5997164]},"properties":{"osm_id":1777615120,"operatorty":"","amenity":"hospital","healthcare":"","healthca_1":"","addrfull":"","capacitype":"","addrcity":"","name":"Centro de Saúde Quelicai","source":"ICIST/GERTiL","building":""}},
{"type":"Feature","geometry":{"type":"Point","coordinates":[125.2938645,-8.9700997]},"properties":{"osm_id":1777615128,"operatorty":"","amenity":"hospital","healthcare":"","healthca_1":"","addrfull":"","capacitype":"","addrcity":"","name":"Centro de Saúde Raheu","source":"ICIST/GERTiL","building":""}},
{"type":"Feature","geometry":{"type":"Point","coordinates":[125.4207332,-8.6761791]},"properties":{"osm_id":1777615129,"operatorty":"","amenity":"hospital","healthcare":"","healthca_1":"","addrfull":"","capacitype":"","addrcity":"","name":"Centro de Sáude Railako","source":"ICIST/GERTiL","building":""}},
{"type":"Feature","geometry":{"type":"Point","coordinates":[125.1560735,-8.8142386]},"properties":{"osm_id":1777615132,"operatorty":"","amenity":"hospital","healthcare":"","healthca_1":"","addrfull":"","capacitype":"","addrcity":"","name":"Centro de Saúde Rairoco","source":"ICIST/GERTiL","building":""}},
{"type":"Feature","geometry":{"type":"Point","coordinates":[126.1542395,-8.9368764]},"properties":{"osm_id":1777615134,"operatorty":"","amenity":"hospital","healthcare":"","healthca_1":"","addrfull":"","capacitype":"","addrcity":"","name":"Centro de Saúde SP 3","source":"ICIST/GERTiL","building":""}},
{"type":"Feature","geometry":{"type":"Point","coordinates":[125.2124619,-9.042363]},"properties":{"osm_id":1777615135,"operatorty":"","amenity":"hospital","healthcare":"","healthca_1":"","addrfull":"","capacitype":"","addrcity":"","name":"Centro de Saúde Saburai","source":"ICIST/GERTiL","building":""}},
{"type":"Feature","geometry":{"type":"Point","coordinates":[126.6913462,-8.5184966]},"properties":{"osm_id":1777615136,"operatorty":"","amenity":"hospital","healthcare":"","healthca_1":"","addrfull":"","capacitype":"","addrcity":"","name":"Centro de Saúde Sagatate","source":"ICIST/GERTiL","building":""}},
{"type":"Feature","geometry":{"type":"Point","coordinates":[125.6480913,-9.0094036]},"properties":{"osm_id":1777615138,"operatorty":"","amenity":"hospital","healthcare":"hospital","healthca_1":"","addrfull":"","capacitype":"","addrcity":"","name":"Centro de Saúde Same","source":"ICIST/GERTiL","building":""}},
{"type":"Feature","geometry":{"type":"Point","coordinates":[125.9388177,-8.8592772]},"properties":{"osm_id":1777615148,"operatorty":"","amenity":"hospital","healthcare":"","healthca_1":"","addrfull":"","capacitype":"","addrcity":"","name":"Centro de Saúde Samoro","source":"ICIST/GERTiL","building":""}},
{"type":"Feature","geometry":{"type":"Point","coordinates":[125.5222932,-8.7095809]},"properties":{"osm_id":1777615152,"operatorty":"","amenity":"hospital","healthcare":"","healthca_1":"","addrfull":"","capacitype":"","addrcity":"","name":"Centro de Saúde Seloi Kraik","source":"ICIST/GERTiL","building":""}},
{"type":"Feature","geometry":{"type":"Point","coordinates":[125.3334734,-9.0850668]},"properties":{"osm_id":1777615156,"operatorty":"","amenity":"hospital","healthcare":"","healthca_1":"","addrfull":"","capacitype":"","addrcity":"","name":"Centro de Saúde Sibuni","source":"ICIST/GERTiL","building":""}},
{"type":"Feature","geometry":{"type":"Point","coordinates":[125.7819988,-9.1017261]},"properties":{"osm_id":1777615159,"operatorty":"","amenity":"hospital","healthcare":"","healthca_1":"","addrfull":"","capacitype":"","addrcity":"","name":"Taitudak","source":"ICIST/GERTiL","building":""}},
{"type":"Feature","geometry":{"type":"Point","coordinates":[125.1798599,-9.2003663]},"properties":{"osm_id":1777615160,"operatorty":"","amenity":"hospital","healthcare":"","healthca_1":"","addrfull":"","capacitype":"","addrcity":"","name":"Centro de Saúde Taroman","source":"ICIST/GERTiL","building":""}},
{"type":"Feature","geometry":{"type":"Point","coordinates":[125.4884345,-8.5699284]},"properties":{"osm_id":1777615161,"operatorty":"","amenity":"hospital","healthcare":"","healthca_1":"","addrfull":"","capacitype":"","addrcity":"","name":"Tibar","source":"ICIST/GERTiL","building":""}},
{"type":"Feature","geometry":{"type":"Point","coordinates":[127.255486,-8.3937817]},"properties":{"osm_id":1777615162,"operatorty":"","amenity":"hospital","healthcare":"","healthca_1":"","addrfull":"","capacitype":"","addrcity":"","name":"Centro de Saúde Tutuala","source":"ICIST/GERTiL","building":""}},
{"type":"Feature","geometry":{"type":"Point","coordinates":[125.6932345,-8.9859539]},"properties":{"osm_id":1777615163,"operatorty":"","amenity":"hospital","healthcare":"","healthca_1":"","addrfull":"","capacitype":"","addrcity":"","name":"Tutuluro","source":"ICIST/GERTiL","building":""}},
{"type":"Feature","geometry":{"type":"Point","coordinates":[126.4601286,-8.7394102]},"properties":{"osm_id":1777615167,"operatorty":"","amenity":"hospital","healthcare":"","healthca_1":"","addrfull":"","capacitype":"","addrcity":"","name":"Centro de Saúde Uai Bobo","source":"ICIST/GERTiL","building":""}},
{"type":"Feature","geometry":{"type":"Point","coordinates":[126.6969161,-8.7483566]},"properties":{"osm_id":1777615168,"operatorty":"","amenity":"hospital","healthcare":"","healthca_1":"","addrfull":"","capacitype":"","addrcity":"","name":"Centro de Saúde Uato Carb","source":"ICIST/GERTiL","building":""}},
{"type":"Feature","geometry":{"type":"Point","coordinates":[126.5327476,-8.8220654]},"properties":{"osm_id":1777615169,"operatorty":"","amenity":"hospital","healthcare":"","healthca_1":"","addrfull":"","capacitype":"","addrcity":"","name":"Centro de Saúde Uatolari","source":"ICIST/GERTiL","building":""}},
{"type":"Feature","geometry":{"type":"Point","coordinates":[126.3363067,-8.5714794]},"properties":{"osm_id":1777615173,"operatorty":"","amenity":"hospital","healthcare":"","healthca_1":"","addrfull":"","capacitype":"","addrcity":"","name":"Centro de Saúde Uatulari","source":"ICIST/GERTiL","building":""}},
{"type":"Feature","geometry":{"type":"Point","coordinates":[125.4563815,-8.5737396]},"properties":{"osm_id":1777615176,"operatorty":"","amenity":"hospital","healthcare":"","healthca_1":"","addrfull":"","capacitype":"","addrcity":"","name":"Ulmera","source":"ICIST/GERTiL","building":""}},
{"type":"Feature","geometry":{"type":"Point","coordinates":[126.0438182,-8.9767856]},"properties":{"osm_id":1777615184,"operatorty":"","amenity":"hospital","healthcare":"hospital","healthca_1":"","addrfull":"","capacitype":"","addrcity":"","name":"Centro de Saúde Umaboco","source":"ICIST/GERTiL","building":""}},
{"type":"Feature","geometry":{"type":"Point","coordinates":[126.3799731,-8.6427445]},"properties":{"osm_id":1777615185,"operatorty":"","amenity":"hospital","healthcare":"","healthca_1":"","addrfull":"","capacitype":"","addrcity":"","name":"Centro de Saúde Venelale","source":"ICIST/GERTiL","building":""}},
{"type":"Feature","geometry":{"type":"Point","coordinates":[126.2121413,-8.5116781]},"properties":{"osm_id":1777615195,"operatorty":"","amenity":"hospital","healthcare":"","healthca_1":"","addrfull":"","capacitype":"","addrcity":"","name":"Vermasse","source":"ICIST/GERTiL","building":""}},
{"type":"Feature","geometry":{"type":"Point","coordinates":[126.3660546,-8.854292]},"properties":{"osm_id":1777615196,"operatorty":"","amenity":"hospital","healthcare":"","healthca_1":"","addrfull":"","capacitype":"","addrcity":"","name":"Viqueque","source":"ICIST/GERTiL","building":""}},
{"type":"Feature","geometry":{"type":"Point","coordinates":[125.4501199,-9.1566985]},"properties":{"osm_id":1777615197,"operatorty":"","amenity":"hospital","healthcare":"","healthca_1":"","addrfull":"","capacitype":"","addrcity":"","name":"Zumalai","source":"ICIST/GERTiL","building":""}},
{"type":"Feature","geometry":{"type":"Point","coordinates":[125.5731143,-8.5550999]},"properties":{"osm_id":2105667071,"operatorty":"","amenity":"pharmacy","healthcare":"","healthca_1":"","addrfull":"","capacitype":"","addrcity":"","name":"Farmacia Barato","source":"","building":""}},
{"type":"Feature","geometry":{"type":"Point","coordinates":[126.4531305,-8.4622279]},"properties":{"osm_id":4336964310,"operatorty":"","amenity":"pharmacy","healthcare":"pharmacy","healthca_1":"","addrfull":"","capacitype":"","addrcity":"","name":"","source":"","building":""}},
{"type":"Feature","geometry":{"type":"Point","coordinates":[125.5748277,-8.5546824]},"properties":{"osm_id":4974291821,"operatorty":"","amenity":"pharmacy","healthcare":"","healthca_1":"","addrfull":"","capacitype":"","addrcity":"","name":"Apotek K-24","source":"","building":""}},
{"type":"Feature","geometry":{"type":"Point","coordinates":[125.7308006,-8.6311976]},"properties":{"osm_id":5225733660,"operatorty":"","amenity":"hospital","healthcare":"hospital","healthca_1":"","addrfull":"","capacitype":"","addrcity":"","name":"Centru Saude Tulataqeu","source":"","building":""}},
{"type":"Feature","geometry":{"type":"Point","coordinates":[126.9972894,-8.5248524]},"properties":{"osm_id":5263275819,"operatorty":"","amenity":"pharmacy","healthcare":"pharmacy","healthca_1":"","addrfull":"","capacitype":"","addrcity":"","name":"","source":"","building":""}},
{"type":"Feature","geometry":{"type":"Point","coordinates":[125.5680697,-8.5544028]},"properties":{"osm_id":5395107821,"operatorty":"","amenity":"hospital","healthcare":"hospital","healthca_1":"","addrfull":"","capacitype":"","addrcity":"","name":"Stanford medical center","source":"","building":""}},
{"type":"Feature","geometry":{"type":"Point","coordinates":[125.5401477,-8.5526336]},"properties":{"osm_id":5565910673,"operatorty":"","amenity":"clinic","healthcare":"clinic","healthca_1":"","addrfull":"","capacitype":"","addrcity":"","name":"","source":"","building":""}},
{"type":"Feature","geometry":{"type":"Point","coordinates":[124.3732396,-9.2037191]},"properties":{"osm_id":5568149521,"operatorty":"","amenity":"hospital","healthcare":"","healthca_1":"","addrfull":"","capacitype":"","addrcity":"","name":"Hospital","source":"","building":""}},
{"type":"Feature","geometry":{"type":"Point","coordinates":[126.6656881,-8.6036656]},"properties":{"osm_id":5593434713,"operatorty":"","amenity":"hospital","healthcare":"hospital","healthca_1":"","addrfull":"","capacitype":"","addrcity":"","name":"Postu Saude Suco Samalari","source":"","building":""}},
{"type":"Feature","geometry":{"type":"Point","coordinates":[125.5736618,-8.5546845]},"properties":{"osm_id":5811745453,"operatorty":"","amenity":"pharmacy","healthcare":"","healthca_1":"","addrfull":"","capacitype":"","addrcity":"","name":"Colmera","source":"","building":""}},
{"type":"Feature","geometry":{"type":"Point","coordinates":[126.5346664,-8.6538616]},"properties":{"osm_id":6880159184,"operatorty":"","amenity":"hospital","healthcare":"general","healthca_1":"","addrfull":"","capacitype":"","addrcity":"Baucau","name":"CENTRO SAUDE DE LAISOROLAI","source":"","building":""}},
{"type":"Feature","geometry":{"type":"Point","coordinates":[126.4604131,-8.4636209]},"properties":{"osm_id":7103600236,"operatorty":"","amenity":"hospital","healthcare":"hospital","healthca_1":"","addrfull":"","capacitype":"","addrcity":"","name":"Hospital Referal Baucau","source":"","building":""}},
{"type":"Feature","geometry":{"type":"Point","coordinates":[125.5655011,-8.7256786]},"properties":{"osm_id":7729975932,"operatorty":"government","amenity":"hospital","healthcare":"general","healthca_1":"","addrfull":"","capacitype":"","addrcity":"Malere","name":"Sentru Saude Munisipiu Aileu","source":"","building":""}},
{"type":"Feature","geometry":{"type":"Point","coordinates":[125.5632346,-8.7348625]},"properties":{"osm_id":7729975938,"operatorty":"community","amenity":"hospital","healthcare":"general","healthca_1":"","addrfull":"","capacitype":"","addrcity":"Kabasfatin","name":"Klinika Uma Ita Nian","source":"","building":""}}
]}